[{"id":1,"toilet_id":1,"device_id":"45FA5494-8D7C-4DAA-AC37-92D2FD33BF59","name":"H&M","address":"Piazza 38","zip":"5611 AE","city":"Eindhoven","country":"Nederland","latitude":51.441804,"longitude":5.476132,"timestamp":"2015-06-02 10:25:36","rating":2,"type":1},{"id":2,"toilet_id":2,"device_id":"45FA5494-8D7C-4DAA-AC37-92D2FD33BF59","name":"Philips Stadion","address":"Frederiklaan 10","zip":"5616 NG","city":"Eindhoven","country":"Nederland","latitude":51.441642,"longitude":5.469722,"timestamp":"2015-06-02 11:02:30","rating":1,"type":1},{"id":3,"toilet_id":3,"device_id":"45FA5494-8D7C-4DAA-AC37-92D2FD33BF59","name":"Fontys Hogeschool","address":"Rachelmolen 1","zip":"5612 MA","city":"Eindhoven","country":"Nederland","latitude":51.450922,"longitude":5.479748,"timestamp":"2015-06-02 11:04:37","rating":5,"type":1},{"id":4,"toilet_id":4,"device_id":"45FA5494-8D7C-4DAA-AC37-92D2FD33BF59","name":"Fontys Hogeschool","address":"Rachelmolen 1","zip":"5612 MA","city":"Eindhoven","country":"Nederland","latitude":51.450922,"longitude":5.479748,"timestamp":"2015-06-02 11:05:28","rating":5,"type":2}]